[1685551749012]$GPRMC,214905.000,A,3744.7567,N,08902.1095,W,006.7,093.8,310523,,,A*7B
[1685551749012]$GPVTG,093.8,T,,M,006.7,N,012.4,K,A*09
[1685551749012]$GPGLL,3744.7571,N,08902.1073,W,214906.000,A,A*45
[1685551749012]$GPGSA,A,3,18,25,05,20,29,13,11,15,,,,,1.7,1.0,1.4*34
[1685551750249]$GPRMC,214906.000,A,3744.7571,N,08902.1073,W,004.5,090.8,310523,,,A*74
[1685551750249]$GPVTG,090.8,T,,M,004.5,N,008.3,K,A*06
[1685551750249]$GPGLL,3744.7569,N,08902.1060,W,214907.000,A,A*4F
[1685551750249]$GPGSA,A,3,18,25,05,20,29,13,11,15,,,,,1.7,1.0,1.4*34
[1685551750249]$GPGSV,3,1,11,29,74,241,26,05,54,040,28,15,53,168,26,13,50,108,25*7A
[1685551750249]$GPGSV,3,2,11,20,31,056,22,18,30,303,24,11,20,097,25,23,20,248,15*75
[1685551750249]$GPGSV,3,3,11,25,08,219,21,26,07,301,11,30,02,060,*49
[1685551751008]$GPRMC,214907.000,A,3744.7569,N,08902.1060,W,002.5,097.0,310523,,,A*77
[1685551751008]$GPVTG,097.0,T,,M,002.5,N,004.6,K,A*06
[1685551751008]$GPGLL,3744.7568,N,08902.1052,W,214908.000,A,A*40
[1685551751008]$GPGSA,A,3,18,25,05,20,29,13,11,15,,,,,1.7,1.0,1.4*34
[1685551752011]$GPRMC,214908.000,A,3744.7568,N,08902.1052,W,001.0,128.6,310523,,,A*7D
[1685551752011]$GPVTG,128.6,T,,M,001.0,N,001.8,K,A*08
[1685551752011]$GPGLL,3744.7567,N,08902.1049,W,214909.000,A,A*44
[1685551752011]$GPGSA,A,3,18,25,05,20,29,13,11,15,,,,,1.7,1.0,1.4*34
[1685551753242]$GPRMC,214909.000,A,3744.7567,N,08902.1049,W,000.0,128.6,310523,,,A*78
[1685551753242]$GPVTG,128.6,T,,M,000.0,N,000.0,K,A*00
[1685551753242]$GPGLL,3744.7566,N,08902.1048,W,214910.000,A,A*4C
[1685551753242]$GPGSA,A,3,18,25,05,20,29,13,11,15,23,,,,1.7,1.0,1.4*35
[1685551753242]$GPGSV,3,1,11,29,74,241,26,05,54,040,27,15,53,168,27,13,50,108,25*74
[1685551753242]$GPGSV,3,2,11,20,31,056,23,18,30,303,25,11,20,097,27,23,20,248,19*7B
[1685551753242]$GPGSV,3,3,11,25,08,219,22,26,07,301,,30,02,060,*4A
[1685551754008]$GPRMC,214910.000,A,3744.7566,N,08902.1048,W,000.0,128.6,310523,,,A*70
[1685551754008]$GPVTG,128.6,T,,M,000.0,N,000.0,K,A*00
[1685551754008]$GPGLL,3744.7567,N,08902.1048,W,214911.000,A,A*4C
[1685551754008]$GPGSA,A,3,18,25,05,20,29,13,11,15,23,,,,1.7,1.0,1.4*35
[1685551755009]$GPRMC,214911.000,A,3744.7567,N,08902.1048,W,000.0,128.6,310523,,,A*70
[1685551755009]$GPVTG,128.6,T,,M,000.0,N,000.0,K,A*00
[1685551755009]$GPGLL,3744.7568,N,08902.1048,W,214912.000,A,A*40
[1685551755009]$GPGSA,A,3,18,25,05,20,29,13,11,15,23,,,,1.7,1.0,1.4*35
[1685551756207]$GPRMC,214912.000,A,3744.7568,N,08902.1048,W,000.0,128.6,310523,,,A*7C
[1685551756207]$GPVTG,128.6,T,,M,000.0,N,000.0,K,A*00
[1685551756207]$GPGLL,3744.7568,N,08902.1048,W,214913.000,A,A*41
[1685551756207]$GPGSA,A,3,18,25,05,20,29,13,11,15,,,,,1.7,1.0,1.4*34
[1685551756207]$GPGSV,3,1,11,29,74,241,26,05,54,040,25,15,53,168,27,13,50,108,24*77
[1685551756207]$GPGSV,3,2,11,20,31,056,22,18,30,303,25,11,20,097,26,23,20,248,18*7A
[1685551756207]$GPGSV,3,3,11,25,08,219,22,26,07,301,,30,02,060,*4A
[1685551757008]$GPRMC,214913.000,A,3744.7568,N,08902.1048,W,000.0,128.6,310523,,,A*7D
[1685551757008]$GPVTG,128.6,T,,M,000.0,N,000.0,K,A*00
[1685551757008]$GPGLL,3744.7568,N,08902.1047,W,214914.000,A,A*49
[1685551757008]$GPGSA,A,3,18,25,05,20,29,13,11,15,23,,,,1.7,1.0,1.4*35
[1685551758007]$GPRMC,214914.000,A,3744.7568,N,08902.1047,W,000.0,128.6,310523,,,A*75
[1685551758007]$GPVTG,128.6,T,,M,000.0,N,000.0,K,A*00
[1685551758007]$GPGLL,3744.7568,N,08902.1047,W,214915.000,A,A*48
[1685551758007]$GPGSA,A,3,18,25,05,20,29,13,11,15,23,,,,1.7,1.0,1.4*35
[1685551759240]$GPRMC,214915.000,A,3744.7568,N,08902.1047,W,000.0,128.6,310523,,,A*74
[1685551759240]$GPVTG,128.6,T,,M,000.0,N,000.0,K,A*00
[1685551759240]$GPGLL,3744.7569,N,08902.1047,W,214916.000,A,A*4A
[1685551759240]$GPGSA,A,3,18,25,05,20,29,13,11,15,23,,,,1.7,1.0,1.4*35
[1685551759240]$GPGSV,3,1,11,29,74,241,28,05,54,040,26,15,53,168,29,13,50,108,26*76
[1685551759240]$GPGSV,3,2,11,20,31,056,23,18,30,303,24,11,20,097,27,23,20,248,18*7B
[1685551759240]$GPGSV,3,3,11,25,08,219,22,26,07,301,,30,02,060,*4A
[1685551760010]$GPRMC,214916.000,A,3744.7569,N,08902.1047,W,000.0,128.6,310523,,,A*76
[1685551760010]$GPVTG,128.6,T,,M,000.0,N,000.0,K,A*00
[1685551760010]$GPGLL,3744.7569,N,08902.1047,W,214917.000,A,A*4B
[1685551760010]$GPGSA,A,3,18,25,05,20,29,13,11,15,23,,,,1.7,1.0,1.4*35
[1685551761007]$GPRMC,214917.000,A,3744.7569,N,08902.1047,W,000.0,128.6,310523,,,A*77
[1685551761007]$GPVTG,128.6,T,,M,000.0,N,000.0,K,A*00
[1685551761007]$GPGLL,3744.7569,N,08902.1047,W,214918.000,A,A*44
[1685551761007]$GPGSA,A,3,18,25,05,20,29,13,11,15,23,,,,1.7,1.0,1.4*35
[1685551762242]$GPRMC,214918.000,A,3744.7569,N,08902.1047,W,000.0,128.6,310523,,,A*78
[1685551762242]$GPVTG,128.6,T,,M,000.0,N,000.0,K,A*00
[1685551762242]$GPGLL,3744.7569,N,08902.1047,W,214919.000,A,A*45
[1685551762242]$GPGSA,A,3,18,25,05,20,29,13,11,15,23,,,,1.7,1.0,1.4*35
[1685551762242]$GPGSV,3,1,11,29,74,241,27,05,54,040,28,15,53,168,28,13,50,108,25*75
[1685551762242]$GPGSV,3,2,11,20,31,056,22,18,30,303,24,11,20,097,26,23,20,248,17*74
[1685551762242]$GPGSV,3,3,11,25,08,219,21,26,07,301,,30,02,060,*49
[1685551763015]$GPRMC,214919.000,A,3744.7569,N,08902.1047,W,000.0,128.6,310523,,,A*79
[1685551763015]$GPVTG,128.6,T,,M,000.0,N,000.0,K,A*00
[1685551763015]$GPGLL,3744.7569,N,08902.1047,W,214920.000,A,A*4F
[1685551763015]$GPGSA,A,3,18,25,05,20,29,13,11,15,23,,,,1.7,1.0,1.4*35
[1685551764008]$GPRMC,214920.000,A,3744.7569,N,08902.1047,W,000.0,128.6,310523,,,A*73
[1685551764008]$GPVTG,128.6,T,,M,000.0,N,000.0,K,A*00
[1685551764008]$GPGLL,3744.7569,N,08902.1047,W,214921.000,A,A*4E
[1685551764008]$GPGSA,A,3,18,25,05,20,29,13,11,15,23,,,,1.7,1.0,1.4*35
[1685551765242]$GPRMC,214921.000,A,3744.7569,N,08902.1047,W,000.0,128.6,310523,,,A*72
[1685551765242]$GPVTG,128.6,T,,M,000.0,N,000.0,K,A*00
[1685551765242]$GPGLL,3744.7569,N,08902.1047,W,214922.000,A,A*4D
[1685551765242]$GPGSA,A,3,18,25,05,20,29,13,11,15,23,,,,1.7,1.0,1.4*35
[1685551765242]$GPGSV,3,1,11,29,74,241,28,05,54,040,28,15,53,168,27,13,50,108,25*75
[1685551765242]$GPGSV,3,2,11,20,31,056,23,18,30,303,24,11,20,097,27,23,20,248,18*7B
[1685551765242]$GPGSV,3,3,11,25,08,219,21,26,07,301,,30,02,060,*49
[1685551766016]$GPRMC,214922.000,A,3744.7569,N,08902.1047,W,000.0,128.6,310523,,,A*71
[1685551766016]$GPVTG,128.6,T,,M,000.0,N,000.0,K,A*00
[1685551766016]$GPGLL,3744.7569,N,08902.1047,W,214923.000,A,A*4C
[1685551766016]$GPGSA,A,3,18,25,05,20,29,13,11,15,23,,,,1.7,1.0,1.4*35
[1685551767009]$GPRMC,214923.000,A,3744.7569,N,08902.1047,W,000.0,128.6,310523,,,A*70
[1685551767009]$GPVTG,128.6,T,,M,000.0,N,000.0,K,A*00
[1685551767009]$GPGLL,3744.7569,N,08902.1047,W,214924.000,A,A*4B
[1685551767009]$GPGSA,A,3,18,25,05,20,29,13,11,15,,,,,1.7,1.0,1.4*34
[1685551768242]$GPRMC,214924.000,A,3744.7569,N,08902.1047,W,000.0,128.6,310523,,,A*77
[1685551768242]$GPVTG,128.6,T,,M,000.0,N,000.0,K,A*00
[1685551768242]$GPGLL,3744.7569,N,08902.1047,W,214925.000,A,A*4A
[1685551768242]$GPGSA,A,3,18,25,05,20,29,13,11,15,23,,,,1.7,1.0,1.4*35
[1685551768242]$GPGSV,3,1,11,29,74,241,28,05,54,040,25,15,53,168,28,13,50,108,25*77
[1685551768242]$GPGSV,3,2,11,20,31,056,22,18,30,303,23,11,20,097,27,23,20,248,17*72
[1685551768242]$GPGSV,3,3,11,25,08,218,21,26,07,301,,30,02,060,*48
[1685551769009]$GPRMC,214925.000,A,3744.7569,N,08902.1047,W,000.0,128.6,310523,,,A*76
[1685551769009]$GPVTG,128.6,T,,M,000.0,N,000.0,K,A*00
[1685551769009]$GPGLL,3744.7569,N,08902.1047,W,214926.000,A,A*49
[1685551769009]$GPGSA,A,3,18,25,05,20,29,13,11,15,23,,,,1.7,1.0,1.4*35
[1685551770008]$GPRMC,214926.000,A,3744.7569,N,08902.1047,W,000.0,128.6,310523,,,A*75
[1685551770008]$GPVTG,128.6,T,,M,000.0,N,000.0,K,A*00
[1685551770008]$GPGLL,3744.7569,N,08902.1047,W,214927.000,A,A*48
[1685551770008]$GPGSA,A,3,18,25,05,20,29,13,11,15,,,,,1.7,1.0,1.4*34
[1685551771240]$GPRMC,214927.000,A,3744.7569,N,08902.1047,W,000.0,128.6,310523,,,A*74
[1685551771240]$GPVTG,128.6,T,,M,000.0,N,000.0,K,A*00
[1685551771240]$GPGLL,3744.7569,N,08902.1047,W,214928.000,A,A*47
[1685551771240]$GPGSA,A,3,18,25,05,20,29,13,11,15,23,,,,1.7,1.0,1.4*35
[1685551771240]$GPGSV,3,1,11,29,74,240,28,05,54,040,27,15,53,168,28,13,50,108,26*77
[1685551771240]$GPGSV,3,2,11,20,31,056,24,18,30,303,23,11,20,097,27,23,20,248,17*74
[1685551771240]$GPGSV,3,3,11,25,08,218,21,26,07,301,,30,02,060,*48
[1685551772014]$GPRMC,214928.000,A,3744.7569,N,08902.1047,W,000.0,128.6,310523,,,A*7B
[1685551772014]$GPVTG,128.6,T,,M,000.0,N,000.0,K,A*00
[1685551772014]$GPGLL,3744.7569,N,08902.1047,W,214929.000,A,A*46
[1685551772014]$GPGSA,A,3,18,25,05,20,29,13,11,15,23,,,,1.7,1.0,1.4*35
[1685551773007]$GPRMC,214929.000,A,3744.7569,N,08902.1047,W,000.0,128.6,310523,,,A*7A
[1685551773007]$GPVTG,128.6,T,,M,000.0,N,000.0,K,A*00
[1685551773007]$GPGLL,3744.7569,N,08902.1047,W,214930.000,A,A*4E
[1685551773007]$GPGSA,A,3,18,25,05,20,29,13,11,15,,,,,1.7,1.0,1.4*34
[1685551774241]$GPRMC,214930.000,A,3744.7569,N,08902.1047,W,000.0,128.6,310523,,,A*72
[1685551774241]$GPVTG,128.6,T,,M,000.0,N,000.0,K,A*00
[1685551774241]$GPGLL,3744.7569,N,08902.1047,W,214931.000,A,A*4F
[1685551774241]$GPGSA,A,3,18,25,05,20,29,13,11,15,23,,,,1.7,1.0,1.4*35
[1685551774241]$GPGSV,3,1,11,29,74,240,28,05,54,040,28,15,53,168,25,13,50,108,25*76
[1685551774241]$GPGSV,3,2,11,20,31,056,23,18,30,303,24,11,20,097,27,23,20,248,16*75
[1685551774241]$GPGSV,3,3,11,25,08,218,21,26,07,301,,30,02,060,*48
[1685551775009]$GPRMC,214931.000,A,3744.7569,N,08902.1047,W,000.0,128.6,310523,,,A*73
[1685551775009]$GPVTG,128.6,T,,M,000.0,N,000.0,K,A*00
[1685551775009]$GPGLL,3744.7569,N,08902.1047,W,214932.000,A,A*4C
[1685551775009]$GPGSA,A,3,18,25,05,20,29,13,11,15,,,,,1.7,1.0,1.4*34
[1685551776015]$GPRMC,214932.000,A,3744.7569,N,08902.1047,W,000.0,128.6,310523,,,A*70
[1685551776015]$GPVTG,128.6,T,,M,000.0,N,000.0,K,A*00
[1685551776015]$GPGLL,3744.7569,N,08902.1047,W,214933.000,A,A*4D
[1685551776015]$GPGSA,A,3,18,25,05,20,29,13,11,15,23,,,,1.7,1.0,1.4*35
[1685551777241]$GPRMC,214933.000,A,3744.7569,N,08902.1047,W,000.0,128.6,310523,,,A*71
[1685551777241]$GPVTG,128.6,T,,M,000.0,N,000.0,K,A*00
[1685551777241]$GPGLL,3744.7569,N,08902.1047,W,214934.000,A,A*4A
[1685551777241]$GPGSA,A,3,18,25,05,20,29,13,11,15,23,,,,1.7,1.0,1.4*35
[1685551777241]$GPGSV,3,1,11,29,74,240,26,05,54,040,26,15,53,168,25,13,50,108,25*76
[1685551777241]$GPGSV,3,2,11,20,31,056,22,18,30,303,24,11,20,097,27,23,20,248,18*7A
[1685551777241]$GPGSV,3,3,11,25,08,218,21,26,07,301,,30,02,060,*48
[1685551778010]$GPRMC,214934.000,A,3744.7569,N,08902.1047,W,000.0,128.6,310523,,,A*76
[1685551778010]$GPVTG,128.6,T,,M,000.0,N,000.0,K,A*00
[1685551778010]$GPGLL,3744.7569,N,08902.1047,W,214935.000,A,A*4B
[1685551778010]$GPGSA,A,3,18,25,05,20,29,13,11,15,23,,,,1.7,1.0,1.4*35
[1685551779009]$GPRMC,214935.000,A,3744.7569,N,08902.1047,W,000.0,128.6,310523,,,A*77
[1685551779009]$GPVTG,128.6,T,,M,000.0,N,000.0,K,A*00
[1685551779009]$GPGLL,3744.7569,N,08902.1047,W,214936.000,A,A*48
[1685551779009]$GPGSA,A,3,18,25,05,20,29,13,11,15,23,,,,1.7,1.0,1.4*35
[1685551780240]$GPRMC,214936.000,A,3744.7569,N,08902.1047,W,000.0,128.6,310523,,,A*74
[1685551780240]$GPVTG,128.6,T,,M,000.0,N,000.0,K,A*00
[1685551780240]$GPGLL,3744.7569,N,08902.1047,W,214937.000,A,A*49
[1685551780240]$GPGSA,A,3,18,25,05,20,29,13,11,15,23,,,,1.7,1.0,1.4*35
[1685551780240]$GPGSV,3,1,11,29,74,240,27,05,54,040,26,15,53,168,25,13,50,108,26*74
[1685551780240]$GPGSV,3,2,11,20,31,056,23,18,30,303,24,11,20,097,26,23,20,248,18*7A
[1685551780240]$GPGSV,3,3,11,25,08,218,21,26,07,301,,30,02,060,*48
[1685551781010]$GPRMC,214937.000,A,3744.7569,N,08902.1047,W,000.0,128.6,310523,,,A*75
[1685551781010]$GPVTG,128.6,T,,M,000.0,N,000.0,K,A*00
[1685551781010]$GPGLL,3744.7569,N,08902.1047,W,214938.000,A,A*46
[1685551781010]$GPGSA,A,3,18,25,05,20,29,13,11,15,23,,,,1.7,1.0,1.4*35
[1685551782008]$GPRMC,214938.000,A,3744.7569,N,08902.1047,W,000.0,128.6,310523,,,A*7A
[1685551782008]$GPVTG,128.6,T,,M,000.0,N,000.0,K,A*00
[1685551782008]$GPGLL,3744.7569,N,08902.1047,W,214939.000,A,A*47
[1685551782008]$GPGSA,A,3,18,25,05,20,29,13,11,15,23,,,,1.7,1.0,1.4*35
[1685551783241]$GPRMC,214939.000,A,3744.7569,N,08902.1047,W,000.0,128.6,310523,,,A*7B
[1685551783241]$GPVTG,128.6,T,,M,000.0,N,000.0,K,A*00
[1685551783241]$GPGLL,3744.7569,N,08902.1047,W,214940.000,A,A*49
[1685551783241]$GPGSA,A,3,18,25,05,20,29,13,11,15,23,,,,1.7,1.0,1.4*35
[1685551783241]$GPGSV,3,1,11,29,74,240,27,05,54,040,29,15,53,168,27,13,50,108,25*7A
[1685551783241]$GPGSV,3,2,11,20,31,056,25,18,30,303,23,11,20,097,28,23,20,248,19*74
[1685551783241]$GPGSV,3,3,11,25,08,218,21,26,07,301,,30,02,060,*48
[1685551784009]$GPRMC,214940.000,A,3744.7569,N,08902.1047,W,000.0,128.6,310523,,,A*75
[1685551784009]$GPVTG,128.6,T,,M,000.0,N,000.0,K,A*00
[1685551784009]$GPGLL,3744.7569,N,08902.1047,W,214941.000,A,A*48
[1685551784009]$GPGSA,A,3,18,25,05,20,29,13,11,15,23,,,,1.7,1.0,1.4*35
[1685551785007]$GPRMC,214941.000,A,3744.7569,N,08902.1047,W,000.0,128.6,310523,,,A*74
[1685551785007]$GPVTG,128.6,T,,M,000.0,N,000.0,K,A*00
[1685551785007]$GPGLL,3744.7569,N,08902.1050,W,214942.000,A,A*4D
[1685551785007]$GPGSA,A,3,18,25,05,20,29,11,15,23,,,,,1.7,1.0,1.4*37
[1685551786241]$GPRMC,214942.000,A,3744.7569,N,08902.1050,W,001.1,060.7,310523,,,A*7D
[1685551786241]$GPVTG,060.7,T,,M,001.1,N,002.0,K,A*0E
[1685551786241]$GPGLL,3744.7572,N,08902.1040,W,214943.000,A,A*47
[1685551786241]$GPGSA,A,3,18,25,05,20,29,13,11,15,23,,,,1.7,1.0,1.4*35
[1685551786241]$GPGSV,3,1,11,29,74,240,28,05,54,040,28,15,53,168,25,13,50,108,22*71
[1685551786241]$GPGSV,3,2,11,20,31,056,27,18,30,303,28,11,20,097,27,23,20,248,23*7B
[1685551786241]$GPGSV,3,3,11,25,08,218,19,26,07,301,,30,02,060,*43
[1685551787007]$GPRMC,214943.000,A,3744.7572,N,08902.1040,W,003.1,066.2,310523,,,A*76
[1685551787007]$GPVTG,066.2,T,,M,003.1,N,005.8,K,A*00
[1685551787007]$GPGLL,3744.7577,N,08902.1024,W,214944.000,A,A*47
[1685551787007]$GPGSA,A,3,18,25,05,29,13,11,15,23,,,,,1.8,1.1,1.4*39
[1685551788009]$GPRMC,214944.000,A,3744.7577,N,08902.1024,W,005.4,074.3,310523,,,A*77
[1685551788009]$GPVTG,074.3,T,,M,005.4,N,010.1,K,A*0C
[1685551788009]$GPGLL,3744.7581,N,08902.1001,W,214945.000,A,A*48
[1685551788009]$GPGSA,A,3,18,25,05,20,29,13,11,15,23,,,,1.7,1.0,1.4*35
[1685551789213]$GPRMC,214945.000,A,3744.7581,N,08902.1001,W,007.5,080.6,310523,,,A*75
[1685551789213]$GPVTG,080.6,T,,M,007.5,N,013.9,K,A*0A
[1685551789213]$GPGLL,3744.7581,N,08902.0969,W,214946.000,A,A*4D
[1685551789213]$GPGSA,A,3,18,05,20,29,13,11,15,23,,,,,2.0,1.1,1.6*35
[1685551789213]$GPGSV,3,1,11,29,74,240,28,05,54,040,28,15,53,168,27,13,50,107,23*7D
[1685551789213]$GPGSV,3,2,11,20,31,056,24,18,30,303,24,11,20,097,28,23,20,248,21*79
[1685551789213]$GPGSV,3,3,11,25,08,218,19,26,07,301,,30,02,060,*43
[1685551790007]$GPRMC,214946.000,A,3744.7581,N,08902.0969,W,010.1,090.9,310523,,,A*7C
[1685551790007]$GPVTG,090.9,T,,M,010.1,N,018.6,K,A*02
[1685551790007]$GPGLL,3744.7578,N,08902.0930,W,214947.000,A,A*46
[1685551790007]$GPGSA,A,3,18,05,20,29,13,11,15,23,,,,,2.0,1.1,1.6*35
[1685551791008]$GPRMC,214947.000,A,3744.7578,N,08902.0930,W,012.0,097.7,310523,,,A*7D
[1685551791008]$GPVTG,097.7,T,,M,012.0,N,022.2,K,A*05
[1685551791008]$GPGLL,3744.7572,N,08902.0884,W,214948.000,A,A*4D
[1685551791008]$GPGSA,A,3,18,05,20,29,13,11,15,23,,,,,2.0,1.1,1.6*35
[1685551792208]$GPRMC,214948.000,A,3744.7572,N,08902.0884,W,013.1,099.5,310523,,,A*7A
[1685551792208]$GPVTG,099.5,T,,M,013.1,N,024.3,K,A*0E
[1685551792208]$GPGLL,3744.7565,N,08902.0829,W,214949.000,A,A*4D
[1685551792208]$GPGSA,A,3,18,05,20,29,13,11,15,23,,,,,2.0,1.1,1.6*35
[1685551792208]$GPGSV,3,1,11,29,74,240,29,05,54,040,29,15,53,168,29,13,50,107,22*72
[1685551792208]$GPGSV,3,2,11,20,31,056,25,18,31,303,23,11,20,097,25,23,20,248,21*73
[1685551792208]$GPGSV,3,3,11,25,08,218,16,26,07,301,,30,02,060,*4C
[1685551793011]$GPRMC,214949.000,A,3744.7565,N,08902.0829,W,015.6,100.7,310523,,,A*78
[1685551793011]$GPVTG,100.7,T,,M,015.6,N,028.9,K,A*0A
[1685551793011]$GPGLL,3744.7555,N,08902.0771,W,214950.000,A,A*44
[1685551793011]$GPGSA,A,3,18,25,05,20,29,13,11,15,23,,,,1.7,1.0,1.4*35
[1685551794009]$GPRMC,214950.000,A,3744.7555,N,08902.0771,W,017.3,101.8,310523,,,A*78
[1685551794009]$GPVTG,101.8,T,,M,017.3,N,032.0,K,A*01
[1685551794009]$GPGLL,3744.7545,N,08902.0709,W,214951.000,A,A*4B
[1685551794009]$GPGSA,A,3,18,25,05,20,29,13,11,15,23,,,,1.7,1.0,1.4*35
[1685551795243]$GPRMC,214951.000,A,3744.7545,N,08902.0709,W,018.5,102.1,310523,,,A*74
[1685551795243]$GPVTG,102.1,T,,M,018.5,N,034.2,K,A*06
[1685551795243]$GPGLL,3744.7535,N,08902.0643,W,214952.000,A,A*40
[1685551795243]$GPGSA,A,3,18,25,05,20,29,13,11,15,23,,,,1.7,1.0,1.4*35
[1685551795243]$GPGSV,3,1,11,29,74,240,28,05,54,040,29,15,53,168,29,13,50,107,24*75
[1685551795243]$GPGSV,3,2,11,20,31,056,25,18,31,303,23,11,20,097,25,23,20,248,20*72
[1685551795243]$GPGSV,3,3,11,25,08,218,18,26,07,301,,30,02,060,*42
[1685551796008]$GPRMC,214952.000,A,3744.7535,N,08902.0643,W,019.3,101.9,310523,,,A*73
[1685551796008]$GPVTG,101.9,T,,M,019.3,N,035.8,K,A*01
[1685551796008]$GPGLL,3744.7522,N,08902.0575,W,214953.000,A,A*41
[1685551796008]$GPGSA,A,3,18,25,05,20,29,13,11,15,23,,,,1.7,1.0,1.4*35
[1685551797008]$GPRMC,214953.000,A,3744.7522,N,08902.0575,W,020.0,102.1,310523,,,A*70
[1685551797008]$GPVTG,102.1,T,,M,020.0,N,037.0,K,A*09
[1685551797008]$GPGLL,3744.7509,N,08902.0505,W,214954.000,A,A*48
[1685551797008]$GPGSA,A,3,18,25,05,20,29,13,11,15,23,,,,1.7,1.0,1.4*35
[1685551798242]$GPRMC,214954.000,A,3744.7509,N,08902.0505,W,020.5,102.8,310523,,,A*75
[1685551798242]$GPVTG,102.8,T,,M,020.5,N,037.9,K,A*0C
[1685551798242]$GPGLL,3744.7496,N,08902.0433,W,214955.000,A,A*4A
[1685551798242]$GPGSA,A,3,18,25,05,20,29,13,11,15,23,,,,1.7,1.0,1.4*35
[1685551798242]$GPGSV,3,1,11,29,74,240,28,05,54,040,29,15,53,168,28,13,50,107,25*75
[1685551798242]$GPGSV,3,2,11,20,31,056,26,18,31,303,22,11,20,097,25,23,20,248,19*7A
[1685551798242]$GPGSV,3,3,11,25,07,218,17,26,07,301,12,30,02,060,*41
[1685551799009]$GPRMC,214955.000,A,3744.7496,N,08902.0433,W,020.8,102.7,310523,,,A*75
[1685551799009]$GPVTG,102.7,T,,M,020.8,N,038.5,K,A*0D
[1685551799009]$GPGLL,3744.7483,N,08902.0359,W,214956.000,A,A*46
[1685551799009]$GPGSA,A,3,18,25,05,20,29,13,11,15,23,,,,1.7,1.0,1.4*35
[1685551800008]$GPRMC,214956.000,A,3744.7483,N,08902.0359,W,021.3,101.5,310523,,,A*72
[1685551800008]$GPVTG,101.5,T,,M,021.3,N,039.5,K,A*07
[1685551800008]$GPGLL,3744.7472,N,08902.0282,W,214957.000,A,A*4E
[1685551800008]$GPGSA,A,3,18,25,05,29,13,11,15,23,,,,,1.8,1.1,1.4*39
[1685551801243]$GPRMC,214957.000,A,3744.7472,N,08902.0282,W,022.0,098.8,310523,,,A*76
[1685551801243]$GPVTG,098.8,T,,M,022.0,N,040.7,K,A*07
[1685551801243]$GPGLL,3744.7463,N,08902.0199,W,214958.000,A,A*48
[1685551801243]$GPGSA,A,3,18,25,05,29,13,11,15,23,,,,,1.8,1.1,1.4*39
[1685551801243]$GPGSV,3,1,11,29,74,240,28,05,54,040,29,15,53,168,26,13,50,107,24*7A
[1685551801243]$GPGSV,3,2,11,20,31,056,23,18,31,303,24,11,20,097,25,23,20,248,19*79
[1685551801243]$GPGSV,3,3,11,25,07,218,20,26,07,301,09,30,02,060,*4F
[1685551802016]$GPRMC,214958.000,A,3744.7463,N,08902.0199,W,022.8,095.3,310523,,,A*7E
[1685551802016]$GPVTG,095.3,T,,M,022.8,N,042.2,K,A*0E
[1685551802016]$GPGLL,3744.7457,N,08902.0111,W,214959.000,A,A*4E
[1685551802016]$GPGSA,A,3,18,25,05,20,29,13,11,15,23,,,,1.7,1.0,1.4*35
[1685551803011]$GPRMC,214959.000,A,3744.7457,N,08902.0111,W,023.9,093.6,310523,,,A*7B
[1685551803011]$GPVTG,093.6,T,,M,023.9,N,044.3,K,A*0A
[1685551803011]$GPGLL,3744.7454,N,08902.0026,W,215000.000,A,A*4C
[1685551803011]$GPGSA,A,3,18,25,05,20,29,13,11,15,23,,,,1.7,1.0,1.4*35
[1685551804248]$GPRMC,215000.000,A,3744.7454,N,08902.0026,W,024.9,092.3,310523,,,A*7A
[1685551804248]$GPVTG,092.3,T,,M,024.9,N,046.1,K,A*09
[1685551804248]$GPGLL,3744.7452,N,08901.9933,W,215001.000,A,A*4C
[1685551804248]$GPGSA,A,3,18,25,05,20,29,13,11,15,23,,,,1.7,1.0,1.4*35
[1685551804248]$GPGSV,3,1,11,29,73,239,27,05,54,040,30,15,53,168,27,13,50,107,24*75
[1685551804248]$GPGSV,3,2,11,20,31,056,26,18,31,303,23,11,20,097,28,23,20,248,20*7C
[1685551804248]$GPGSV,3,3,11,25,07,218,21,26,07,301,11,30,02,059,*4D
[1685551805013]$GPRMC,215001.000,A,3744.7452,N,08901.9933,W,026.3,090.8,310523,,,A*7B
[1685551805013]$GPVTG,090.8,T,,M,026.3,N,048.8,K,A*0F
[1685551805013]$GPGLL,3744.7451,N,08901.9834,W,215002.000,A,A*4A
[1685551805013]$GPGSA,A,3,18,25,05,20,29,13,11,15,23,,,,1.7,1.0,1.4*35
[1685551806009]$GPRMC,215002.000,A,3744.7451,N,08901.9834,W,027.3,090.1,310523,,,A*75
[1685551806009]$GPVTG,090.1,T,,M,027.3,N,050.5,K,A*03
[1685551806009]$GPGLL,3744.7451,N,08901.9737,W,215003.000,A,A*47
[1685551806009]$GPGSA,A,3,18,25,05,20,29,13,11,15,23,,,,1.7,1.0,1.4*35
[1685551807243]$GPRMC,215003.000,A,3744.7451,N,08901.9737,W,027.9,090.3,310523,,,A*70
[1685551807243]$GPVTG,090.3,T,,M,027.9,N,051.8,K,A*07
[1685551807243]$GPGLL,3744.7452,N,08901.9635,W,215004.000,A,A*40
[1685551807243]$GPGSA,A,3,18,25,05,20,29,13,11,15,23,,,,1.7,1.0,1.4*35
[1685551807243]$GPGSV,3,1,11,29,73,239,28,05,54,040,30,15,53,168,26,13,50,107,23*7C
[1685551807243]$GPGSV,3,2,11,20,31,056,26,18,31,303,21,11,20,097,28,23,20,248,19*74
[1685551807243]$GPGSV,3,3,11,25,07,218,21,26,07,301,09,30,02,059,*44
[1685551808009]$GPRMC,215004.000,A,3744.7452,N,08901.9635,W,028.5,090.2,310523,,,A*75
[1685551808009]$GPVTG,090.2,T,,M,028.5,N,052.8,K,A*06
[1685551808009]$GPGLL,3744.7452,N,08901.9532,W,215005.000,A,A*45
[1685551808009]$GPGSA,A,3,18,25,05,20,29,13,11,15,23,,,,1.7,1.0,1.4*35
[1685551809009]$GPRMC,215005.000,A,3744.7452,N,08901.9532,W,029.0,089.7,310523,,,A*79
[1685551809009]$GPVTG,089.7,T,,M,029.0,N,053.6,K,A*00
[1685551809009]$GPGLL,3744.7452,N,08901.9430,W,215006.000,A,A*45
[1685551809009]$GPGSA,A,3,18,25,05,20,29,13,11,15,23,,,,1.7,1.0,1.4*35
[1685551810242]$GPRMC,215006.000,A,3744.7452,N,08901.9430,W,029.4,088.9,310523,,,A*72
[1685551810242]$GPVTG,088.9,T,,M,029.4,N,054.4,K,A*0E
[1685551810242]$GPGLL,3744.7453,N,08901.9328,W,215007.000,A,A*4B
[1685551810242]$GPGSA,A,3,18,25,05,20,29,13,11,15,23,,,,1.7,1.0,1.4*35
[1685551810242]$GPGSV,3,1,11,29,73,239,28,05,54,041,30,15,53,168,27,13,50,107,22*7D
[1685551810242]$GPGSV,3,2,11,20,31,056,25,18,31,303,21,11,20,097,28,23,20,248,19*77
[1685551810242]$GPGSV,3,3,11,25,07,218,20,26,07,301,10,30,02,059,*4D
[1685551811008]$GPRMC,215007.000,A,3744.7453,N,08901.9328,W,029.4,088.4,310523,,,A*71
[1685551811008]$GPVTG,088.4,T,,M,029.4,N,054.4,K,A*03
[1685551811008]$GPGLL,3744.7455,N,08901.9223,W,215008.000,A,A*48
[1685551811008]$GPGSA,A,3,18,25,05,20,29,13,11,15,23,,,,1.7,1.0,1.4*35
[1685551812008]$GPRMC,215008.000,A,3744.7455,N,08901.9223,W,029.1,089.0,310523,,,A*72
[1685551812008]$GPVTG,089.0,T,,M,029.1,N,054.0,K,A*07
[1685551812008]$GPGLL,3744.7457,N,08901.9121,W,215009.000,A,A*4A
[1685551812008]$GPGSA,A,3,18,25,05,20,29,13,11,15,23,,,,1.7,1.0,1.4*35
[1685551813240]$GPRMC,215009.000,A,3744.7457,N,08901.9121,W,028.3,090.2,310523,,,A*79
[1685551813240]$GPVTG,090.2,T,,M,028.3,N,052.5,K,A*0D
[1685551813240]$GPGLL,3744.7457,N,08901.9022,W,215010.000,A,A*40
[1685551813240]$GPGSA,A,3,18,25,05,20,29,13,11,15,23,,,,1.7,1.0,1.4*35
[1685551813240]$GPGSV,3,1,11,29,73,239,28,05,54,041,30,15,53,168,26,13,50,107,24*7A
[1685551813240]$GPGSV,3,2,11,20,31,056,26,18,31,303,20,11,20,097,27,23,20,248,19*7A
[1685551813240]$GPGSV,3,3,11,25,07,218,20,26,07,301,,30,02,059,*4C
[1685551814011]$GPRMC,215010.000,A,3744.7457,N,08901.9022,W,027.4,091.0,310523,,,A*78
[1685551814011]$GPVTG,091.0,T,,M,027.4,N,050.7,K,A*06
[1685551814011]$GPGLL,3744.7457,N,08901.8933,W,215011.000,A,A*49
[1685551814011]$GPGSA,A,3,18,25,05,20,29,13,11,15,23,,,,1.7,1.0,1.4*35
[1685551815014]$GPRMC,215011.000,A,3744.7457,N,08901.8933,W,026.3,090.6,310523,,,A*70
[1685551815014]$GPVTG,090.6,T,,M,026.3,N,048.6,K,A*0F
[1685551815014]$GPGLL,3744.7456,N,08901.8842,W,215012.000,A,A*4C
[1685551815014]$GPGSA,A,3,18,25,05,20,29,13,11,15,23,,,,1.7,1.0,1.4*35
[1685551816240]$GPRMC,215012.000,A,3744.7456,N,08901.8842,W,025.8,089.6,310523,,,A*75
[1685551816240]$GPVTG,089.6,T,,M,025.8,N,047.7,K,A*01
[1685551816240]$GPGLL,3744.7457,N,08901.8751,W,215013.000,A,A*41
[1685551816240]$GPGSA,A,3,18,25,05,20,29,13,11,15,23,,,,1.7,1.0,1.4*35
[1685551816240]$GPGSV,3,1,11,29,73,239,27,05,54,041,30,15,53,168,26,13,50,107,23*72
[1685551816240]$GPGSV,3,2,11,20,31,056,25,18,31,303,18,11,20,097,27,23,20,248,19*72
[1685551816240]$GPGSV,3,3,11,25,07,218,19,26,07,301,,30,02,059,*46
[1685551817015]$GPRMC,215013.000,A,3744.7457,N,08901.8751,W,024.8,090.1,310523,,,A*76
[1685551817015]$GPVTG,090.1,T,,M,024.8,N,045.9,K,A*03
[1685551817015]$GPGLL,3744.7458,N,08901.8671,W,215014.000,A,A*4A
[1685551817015]$GPGSA,A,3,18,25,05,20,29,13,11,15,23,,,,1.7,1.0,1.4*35
[1685551818009]$GPRMC,215014.000,A,3744.7458,N,08901.8671,W,023.2,089.3,310523,,,A*7A
[1685551818009]$GPVTG,089.3,T,,M,023.2,N,043.1,K,A*0A
[1685551818009]$GPGLL,3744.7460,N,08901.8590,W,215015.000,A,A*4C
[1685551818009]$GPGSA,A,3,18,25,05,20,29,13,11,15,23,,,,1.7,1.0,1.4*35
[1685551819241]$GPRMC,215015.000,A,3744.7460,N,08901.8590,W,022.8,085.9,310523,,,A*71
[1685551819241]$GPVTG,085.9,T,,M,022.8,N,042.3,K,A*04
[1685551819241]$GPGLL,3744.7465,N,08901.8510,W,215016.000,A,A*42
[1685551819241]$GPGSA,A,3,18,05,20,29,13,11,15,23,,,,,2.0,1.1,1.6*35
[1685551819241]$GPGSV,3,1,11,29,73,239,28,05,54,041,32,15,53,168,25,13,51,107,25*7B
[1685551819241]$GPGSV,3,2,11,20,31,056,25,18,31,303,22,11,20,097,28,23,20,248,17*7A
[1685551819241]$GPGSV,3,3,11,25,07,218,17,26,07,301,21,30,02,059,*4B
[1685551820009]$GPRMC,215016.000,A,3744.7465,N,08901.8510,W,023.1,082.4,310523,,,A*7D
[1685551820009]$GPVTG,082.4,T,,M,023.1,N,042.8,K,A*0D
[1685551820009]$GPGLL,3744.7481,N,08901.8426,W,215017.000,A,A*4D
[1685551820009]$GPGSA,A,3,18,25,05,20,29,13,11,15,23,,,,1.7,1.0,1.4*35
[1685551821009]$GPRMC,215017.000,A,3744.7481,N,08901.8426,W,023.7,078.2,310523,,,A*77
[1685551821009]$GPVTG,078.2,T,,M,023.7,N,043.9,K,A*08
[1685551821009]$GPGLL,3744.7497,N,08901.8345,W,215018.000,A,A*47
[1685551821009]$GPGSA,A,3,18,25,05,20,29,13,11,15,23,,,,1.7,1.0,1.4*35
[1685551822246]$GPRMC,215018.000,A,3744.7497,N,08901.8345,W,023.6,072.1,310523,,,A*75
[1685551822246]$GPVTG,072.1,T,,M,023.6,N,043.7,K,A*0E
[1685551822246]$GPGLL,3744.7519,N,08901.8268,W,215019.000,A,A*4F
[1685551822246]$GPGSA,A,3,18,25,05,20,29,13,11,15,23,,,,1.7,1.0,1.4*35
[1685551822246]$GPGSV,3,1,11,29,73,239,28,05,54,041,27,15,53,168,27,13,51,107,23*7B
[1685551822246]$GPGSV,3,2,11,20,31,056,24,18,31,303,23,11,20,097,29,23,20,248,20*7F
[1685551822246]$GPGSV,3,3,11,25,07,218,21,26,07,301,19,30,02,059,*45
[1685551823015]$GPRMC,215019.000,A,3744.7519,N,08901.8268,W,023.8,067.3,310523,,,A*75
[1685551823015]$GPVTG,067.3,T,,M,023.8,N,044.1,K,A*07
[1685551823015]$GPGLL,3744.7552,N,08901.8192,W,215020.000,A,A*4C
[1685551823015]$GPGSA,A,3,18,25,05,20,29,13,11,15,23,,,,1.7,1.0,1.4*35
[1685551824009]$GPRMC,215020.000,A,3744.7552,N,08901.8192,W,024.3,064.0,310523,,,A*7A
[1685551824009]$GPVTG,064.0,T,,M,024.3,N,045.1,K,A*0A
[1685551824009]$GPGLL,3744.7588,N,08901.8117,W,215021.000,A,A*47
[1685551824009]$GPGSA,A,3,18,25,05,20,29,13,11,15,23,,,,1.7,1.0,1.4*35
[1685551825242]$GPRMC,215021.000,A,3744.7588,N,08901.8117,W,024.4,061.5,310523,,,A*76
[1685551825242]$GPVTG,061.5,T,,M,024.4,N,045.2,K,A*0E
[1685551825242]$GPGLL,3744.7622,N,08901.8039,W,215022.000,A,A*4A
[1685551825242]$GPGSA,A,3,18,25,05,20,29,13,11,15,23,,,,1.7,1.0,1.4*35
[1685551825242]$GPGSV,3,1,11,29,73,239,28,05,54,041,26,15,53,168,26,13,51,107,25*7D
[1685551825242]$GPGSV,3,2,11,18,31,304,26,20,30,056,28,11,20,097,24,23,20,248,23*7E
[1685551825242]$GPGSV,3,3,11,25,07,218,20,26,07,301,15,30,02,059,*48
[1685551826009]$GPRMC,215022.000,A,3744.7622,N,08901.8039,W,024.6,060.3,310523,,,A*7E
[1685551826009]$GPVTG,060.3,T,,M,024.6,N,045.6,K,A*0F
[1685551826009]$GPGLL,3744.7657,N,08901.7963,W,215023.000,A,A*40
[1685551826009]$GPGSA,A,3,18,25,05,20,29,13,11,15,23,,,,1.7,1.0,1.4*35
[1685551827011]$GPRMC,215023.000,A,3744.7657,N,08901.7963,W,024.4,060.8,310523,,,A*7D
[1685551827011]$GPVTG,060.8,T,,M,024.4,N,045.2,K,A*02
[1685551827011]$GPGLL,3744.7691,N,08901.7892,W,215024.000,A,A*42
[1685551827011]$GPGSA,A,3,18,25,05,20,29,11,15,23,,,,,1.7,1.0,1.4*37
[1685551828248]$GPRMC,215024.000,A,3744.7691,N,08901.7892,W,023.5,063.0,310523,,,A*72
[1685551828248]$GPVTG,063.0,T,,M,023.5,N,043.6,K,A*0D
[1685551828248]$GPGLL,3744.7720,N,08901.7818,W,215025.000,A,A*4A
[1685551828248]$GPGSA,A,3,18,25,05,20,29,11,15,23,,,,,1.7,1.0,1.4*37
[1685551828248]$GPGSV,3,1,11,29,73,239,28,05,54,041,28,15,53,168,26,13,51,107,22*74
[1685551828248]$GPGSV,3,2,11,18,31,304,25,20,30,056,25,11,20,097,28,23,20,249,22*7C
[1685551828248]$GPGSV,3,3,11,25,07,218,17,26,07,301,14,30,02,059,*4D
[1685551829009]$GPRMC,215025.000,A,3744.7720,N,08901.7818,W,022.3,068.1,310523,,,A*77
[1685551829009]$GPVTG,068.1,T,,M,022.3,N,041.3,K,A*07
[1685551829009]$GPGLL,3744.7738,N,08901.7748,W,215026.000,A,A*4A
[1685551829009]$GPGSA,A,3,18,25,05,20,29,13,11,15,,,,,1.7,1.0,1.4*34
[1685551830015]$GPRMC,215026.000,A,3744.7738,N,08901.7748,W,020.8,074.0,310523,,,A*72
[1685551830015]$GPVTG,074.0,T,,M,020.8,N,038.6,K,A*09
[1685551830015]$GPGLL,3744.7748,N,08901.7680,W,215027.000,A,A*49
[1685551830015]$GPGSA,A,3,18,25,05,20,29,13,11,15,23,,,,1.7,1.0,1.4*35
[1685551831244]$GPRMC,215027.000,A,3744.7748,N,08901.7680,W,019.4,080.0,310523,,,A*7C
[1685551831244]$GPVTG,080.0,T,,M,019.4,N,036.0,K,A*0C
[1685551831244]$GPGLL,3744.7752,N,08901.7616,W,215028.000,A,A*42
[1685551831244]$GPGSA,A,3,18,25,05,20,29,13,11,15,23,,,,1.7,1.0,1.4*35
[1685551831244]$GPGSV,3,1,11,29,73,239,28,05,54,041,30,15,53,168,27,13,51,107,22*7C
[1685551831244]$GPGSV,3,2,11,18,31,304,24,20,30,056,26,11,20,097,27,23,20,249,20*73
[1685551831244]$GPGSV,3,3,11,25,07,218,19,26,07,301,15,30,02,059,*42
[1685551832009]$GPRMC,215028.000,A,3744.7752,N,08901.7616,W,018.9,084.3,310523,,,A*7C
[1685551832009]$GPVTG,084.3,T,,M,018.9,N,034.9,K,A*0C
[1685551832009]$GPGLL,3744.7756,N,08901.7551,W,215029.000,A,A*47
[1685551832009]$GPGSA,A,3,18,25,05,20,29,13,11,15,23,,,,1.7,1.0,1.4*35
[1685551833010]$GPRMC,215029.000,A,3744.7756,N,08901.7551,W,018.1,088.0,310523,,,A*7E
[1685551833010]$GPVTG,088.0,T,,M,018.1,N,033.6,K,A*03
[1685551833010]$GPGLL,3744.7756,N,08901.7483,W,215030.000,A,A*41
[1685551833010]$GPGSA,A,3,18,25,05,20,29,13,11,15,23,,,,1.7,1.0,1.4*35
[1685551834241]$GPRMC,215030.000,A,3744.7756,N,08901.7483,W,019.0,089.2,310523,,,A*7B
[1685551834241]$GPVTG,089.2,T,,M,019.0,N,035.2,K,A*02
[1685551834241]$GPGLL,3744.7757,N,08901.7417,W,215031.000,A,A*4C
[1685551834241]$GPGSA,A,3,18,25,05,20,29,13,11,15,23,,,,1.7,1.0,1.4*35
[1685551834241]$GPGSV,3,1,11,29,73,238,26,05,54,041,31,15,53,168,25,13,51,107,23*71
[1685551834241]$GPGSV,3,2,11,18,31,304,23,20,30,056,26,11,20,097,27,23,20,249,19*7E
[1685551834241]$GPGSV,3,3,11,25,07,218,21,26,07,301,17,30,02,059,*4B
[1685551835008]$GPRMC,215031.000,A,3744.7757,N,08901.7417,W,020.8,089.1,310523,,,A*77
[1685551835008]$GPVTG,089.1,T,,M,020.8,N,038.6,K,A*0A
[1685551835008]$GPGLL,3744.7758,N,08901.7332,W,215032.000,A,A*40
[1685551835008]$GPGSA,A,3,18,25,05,20,29,13,11,15,23,,,,1.7,1.0,1.4*35
[1685551836014]$GPRMC,215032.000,A,3744.7758,N,08901.7332,W,023.7,088.3,310523,,,A*74
[1685551836014]$GPVTG,088.3,T,,M,023.7,N,043.9,K,A*06
[1685551836014]$GPGLL,3744.7761,N,08901.7235,W,215033.000,A,A*4D
[1685551836014]$GPGSA,A,3,18,25,05,20,29,13,11,15,23,,,,1.7,1.0,1.4*35
[1685551837241]$GPRMC,215033.000,A,3744.7761,N,08901.7235,W,027.7,087.6,310523,,,A*77
[1685551837241]$GPVTG,087.6,T,,M,027.7,N,051.3,K,A*01
[1685551837241]$GPGLL,3744.7764,N,08901.7137,W,215034.000,A,A*4E
[1685551837241]$GPGSA,A,3,18,25,05,20,29,13,11,15,23,,,,1.7,1.0,1.4*35
[1685551837241]$GPGSV,3,1,11,29,73,238,26,05,54,041,30,15,53,168,25,13,51,107,23*70
[1685551837241]$GPGSV,3,2,11,18,31,304,21,20,30,056,25,11,20,097,27,23,20,249,19*7F
[1685551837241]$GPGSV,3,3,11,25,07,218,20,26,07,301,19,30,02,059,*44
[1685551838009]$GPRMC,215034.000,A,3744.7764,N,08901.7137,W,030.0,088.9,310523,,,A*75
[1685551838009]$GPVTG,088.9,T,,M,030.0,N,055.5,K,A*02
[1685551838009]$GPGLL,3744.7765,N,08901.7032,W,215035.000,A,A*4A
[1685551838009]$GPGSA,A,3,18,25,05,20,29,13,11,15,23,,,,1.7,1.0,1.4*35
[1685551839009]$GPRMC,215035.000,A,3744.7765,N,08901.7032,W,030.3,090.1,310523,,,A*73
[1685551839009]$GPVTG,090.1,T,,M,030.3,N,056.1,K,A*07
[1685551839009]$GPGLL,3744.7764,N,08901.6926,W,215036.000,A,A*45
[1685551839009]$GPGSA,A,3,18,25,05,20,29,13,11,15,,,,,1.7,1.0,1.4*34
[1685551840244]$GPRMC,215036.000,A,3744.7764,N,08901.6926,W,030.0,089.3,310523,,,A*75
[1685551840244]$GPVTG,089.3,T,,M,030.0,N,055.5,K,A*09
[1685551840244]$GPGLL,3744.7766,N,08901.6821,W,215037.000,A,A*40
[1685551840244]$GPGSA,A,3,18,25,05,20,29,13,11,15,,,,,1.7,1.0,1.4*34
[1685551840244]$GPGSV,3,1,11,29,73,238,26,05,54,041,31,15,53,168,25,13,51,107,22*70
[1685551840244]$GPGSV,3,2,11,18,31,304,23,20,30,056,25,11,20,097,27,23,20,249,18*7C
[1685551840244]$GPGSV,3,3,11,25,07,218,19,26,07,301,22,30,02,059,*46
[1685551841015]$GPRMC,215037.000,A,3744.7766,N,08901.6821,W,029.4,086.4,310523,,,A*74
[1685551841015]$GPVTG,086.4,T,,M,029.4,N,054.4,K,A*0D
[1685551841015]$GPGLL,3744.7773,N,08901.6719,W,215038.000,A,A*4F
[1685551841015]$GPGSA,A,3,18,05,20,29,13,11,15,,,,,,2.5,1.3,2.2*34
[1685551842010]$GPRMC,215038.000,A,3744.7773,N,08901.6719,W,029.2,081.8,310523,,,A*76
[1685551842010]$GPVTG,081.8,T,,M,029.2,N,054.0,K,A*04
[1685551842010]$GPGLL,3744.7785,N,08901.6618,W,215039.000,A,A*47
[1685551842010]$GPGSA,A,3,18,25,05,20,29,13,11,15,,,,,1.7,1.0,1.4*34
[1685551843244]$GPRMC,215039.000,A,3744.7785,N,08901.6618,W,028.8,076.3,310523,,,A*76
[1685551843244]$GPVTG,076.3,T,,M,028.8,N,053.3,K,A*08
[1685551843244]$GPGLL,3744.7807,N,08901.6516,W,215040.000,A,A*41
[1685551843244]$GPGSA,A,3,18,25,05,20,29,13,11,15,23,,,,1.7,1.0,1.4*35
[1685551843244]$GPGSV,3,1,11,29,73,238,27,15,53,168,26,05,53,041,28,13,51,107,25*7A
[1685551843244]$GPGSV,3,2,11,18,31,304,24,20,30,056,24,11,20,097,26,23,20,249,17*74
[1685551843244]$GPGSV,3,3,11,25,07,218,17,26,07,301,20,30,02,059,*4A
[1685551844012]$GPRMC,215040.000,A,3744.7807,N,08901.6516,W,029.1,072.6,310523,,,A*79
[1685551844012]$GPVTG,072.6,T,,M,029.1,N,053.9,K,A*0B
[1685551844012]$GPGLL,3744.7840,N,08901.6426,W,215041.000,A,A*41
[1685551844012]$GPGSA,A,3,18,25,05,20,29,13,11,15,23,,,,1.7,1.0,1.4*35
[1685551845009]$GPRMC,215041.000,A,3744.7840,N,08901.6426,W,028.3,066.6,310523,,,A*7F
[1685551845009]$GPVTG,066.6,T,,M,028.3,N,052.4,K,A*01
[1685551845009]$GPGLL,3744.7872,N,08901.6335,W,215042.000,A,A*46
[1685551845009]$GPGSA,A,3,18,05,20,29,13,11,15,23,,,,,2.0,1.1,1.6*35
[1685551846243]$GPRMC,215042.000,A,3744.7872,N,08901.6335,W,028.3,065.2,310523,,,A*7F
[1685551846243]$GPVTG,065.2,T,,M,028.3,N,052.5,K,A*07
[1685551846243]$GPGLL,3744.7908,N,08901.6247,W,215043.000,A,A*4F
[1685551846243]$GPGSA,A,3,18,05,20,29,13,11,15,23,,,,,2.0,1.1,1.6*35
[1685551846243]$GPGSV,3,1,11,29,73,238,27,15,53,168,26,05,53,041,28,13,51,107,24*7B
[1685551846243]$GPGSV,3,2,11,18,31,304,25,20,30,056,27,11,20,097,26,23,20,249,21*73
[1685551846243]$GPGSV,3,3,11,25,07,218,17,26,07,301,17,30,02,059,*4E
[1685551847011]$GPRMC,215043.000,A,3744.7908,N,08901.6247,W,028.1,064.1,310523,,,A*76
[1685551847011]$GPVTG,064.1,T,,M,028.1,N,052.0,K,A*02
[1685551847011]$GPGLL,3744.7942,N,08901.6158,W,215044.000,A,A*4B
[1685551847011]$GPGSA,A,3,18,05,20,29,13,11,15,23,,,,,2.0,1.1,1.6*35
[1685551848009]$GPRMC,215044.000,A,3744.7942,N,08901.6158,W,028.0,064.0,310523,,,A*72
[1685551848009]$GPVTG,064.0,T,,M,028.0,N,051.8,K,A*09
[1685551848009]$GPGLL,3744.7976,N,08901.6068,W,215045.000,A,A*4F
[1685551848009]$GPGSA,A,3,18,25,05,20,29,13,11,15,23,,,,1.7,1.0,1.4*35
[1685551849241]$GPRMC,215045.000,A,3744.7976,N,08901.6068,W,027.6,064.7,310523,,,A*78
[1685551849241]$GPVTG,064.7,T,,M,027.6,N,051.1,K,A*0E
[1685551849241]$GPGLL,3744.8006,N,08901.5978,W,215046.000,A,A*46
[1685551849241]$GPGSA,A,3,18,25,05,20,29,13,11,15,23,,,,1.7,1.0,1.4*35
[1685551849241]$GPGSV,3,1,11,29,73,238,27,15,53,168,25,05,53,041,27,13,51,107,24*77
[1685551849241]$GPGSV,3,2,11,18,31,304,25,20,30,056,25,11,20,098,24,23,20,249,21*7C
[1685551849241]$GPGSV,3,3,11,25,07,218,20,26,07,301,15,30,02,059,*48
[1685551850010]$GPRMC,215046.000,A,3744.8006,N,08901.5978,W,027.3,066.9,310523,,,A*78
[1685551850010]$GPVTG,066.9,T,,M,027.3,N,050.6,K,A*01
[1685551850010]$GPGLL,3744.8031,N,08901.5884,W,215047.000,A,A*41
[1685551850010]$GPGSA,A,3,18,25,05,20,29,11,15,23,,,,,1.7,1.0,1.4*37
[1685551851019]$GPRMC,215047.000,A,3744.8031,N,08901.5884,W,027.1,071.2,310523,,,A*70
[1685551851019]$GPVTG,071.2,T,,M,027.1,N,050.2,K,A*0A
[1685551851019]$GPGLL,3744.8056,N,08901.5789,W,215048.000,A,A*4D
[1685551851019]$GPGSA,A,3,18,25,05,20,29,13,11,23,,,,,1.9,1.1,1.5*3F
[1685551852249]$GPRMC,215048.000,A,3744.8056,N,08901.5789,W,027.5,073.0,310523,,,A*78
[1685551852249]$GPVTG,073.0,T,,M,027.5,N,051.0,K,A*0D
[1685551852249]$GPGLL,3744.8076,N,08901.5696,W,215049.000,A,A*41
[1685551852249]$GPGSA,A,3,18,25,05,20,29,13,11,15,23,,,,1.7,1.0,1.4*35
[1685551852249]$GPGSV,3,1,11,29,73,238,27,15,54,168,23,05,53,041,28,13,51,107,20*7D
[1685551852249]$GPGSV,3,2,11,18,31,304,23,20,30,056,25,11,20,098,24,23,20,249,18*70
[1685551852249]$GPGSV,3,3,11,25,07,218,18,26,07,301,17,30,02,059,*41
[1685551853014]$GPRMC,215049.000,A,3744.8076,N,08901.5696,W,027.1,081.2,310523,,,A*7F
[1685551853014]$GPVTG,081.2,T,,M,027.1,N,050.1,K,A*06
[1685551853014]$GPGLL,3744.8084,N,08901.5598,W,215050.000,A,A*49
[1685551853014]$GPGSA,A,3,18,25,05,20,29,13,11,15,,,,,1.7,1.0,1.4*34
[1685551854017]$GPRMC,215050.000,A,3744.8084,N,08901.5598,W,027.4,090.2,310523,,,A*72
[1685551854017]$GPVTG,090.2,T,,M,027.4,N,050.7,K,A*05
[1685551854017]$GPGLL,3744.8082,N,08901.5496,W,215051.000,A,A*41
[1685551854017]$GPGSA,A,3,25,05,20,29,13,11,15,23,,,,,1.9,1.3,1.4*31
[1685551855246]$GPRMC,215051.000,A,3744.8082,N,08901.5496,W,028.6,092.8,310523,,,A*7F
[1685551855246]$GPVTG,092.8,T,,M,028.6,N,053.0,K,A*04
[1685551855246]$GPGLL,3744.8075,N,08901.5395,W,215052.000,A,A*4E
[1685551855246]$GPGSA,A,3,18,25,05,20,29,13,11,15,,,,,1.7,1.0,1.4*34
[1685551855246]$GPGSV,3,1,11,29,73,238,25,15,54,168,24,05,53,041,30,13,51,107,21*70
[1685551855246]$GPGSV,3,2,11,18,31,304,20,20,30,056,25,11,20,098,22,23,20,249,15*78
[1685551855246]$GPGSV,3,3,11,25,07,218,16,26,07,301,19,30,02,059,*41
[1685551856009]$GPRMC,215052.000,A,3744.8075,N,08901.5395,W,028.6,090.1,310523,,,A*7B
[1685551856009]$GPVTG,090.1,T,,M,028.6,N,052.9,K,A*07
[1685551856009]$GPGLL,3744.8077,N,08901.5298,W,215053.000,A,A*41
[1685551856009]$GPGSA,A,3,18,05,20,29,13,11,15,,,,,,2.5,1.3,2.2*34
[1685551857011]$GPRMC,215053.000,A,3744.8077,N,08901.5298,W,028.4,088.9,310523,,,A*77
[1685551857011]$GPVTG,088.9,T,,M,028.4,N,052.5,K,A*08
[1685551857011]$GPGLL,3744.8081,N,08901.5199,W,215054.000,A,A*4D
[1685551857011]$GPGSA,A,3,18,05,20,29,13,11,15,,,,,,2.5,1.3,2.2*34
[1685551858207]$GPRMC,215054.000,A,3744.8081,N,08901.5199,W,027.5,086.8,310523,,,A*7A
[1685551858207]$GPVTG,086.8,T,,M,027.5,N,050.9,K,A*07
[1685551858207]$GPGLL,3744.8084,N,08901.5101,W,215055.000,A,A*48
[1685551858207]$GPGSA,A,3,18,05,20,29,13,11,15,,,,,,2.5,1.3,2.2*34
[1685551858207]$GPGSV,3,1,11,29,73,238,25,15,54,168,24,05,53,041,30,13,51,107,22*73
[1685551858207]$GPGSV,3,2,11,18,31,304,24,20,30,056,25,11,20,098,28,23,20,249,12*71
[1685551858207]$GPGSV,3,3,11,25,07,218,13,26,07,301,20,30,02,059,*4E
[1685551859009]$GPRMC,215055.000,A,3744.8084,N,08901.5101,W,027.5,086.8,310523,,,A*7F
[1685551859009]$GPVTG,086.8,T,,M,027.5,N,051.0,K,A*0F
[1685551859009]$GPGLL,3744.8092,N,08901.5004,W,215056.000,A,A*48
[1685551859009]$GPGSA,A,3,18,05,20,29,13,11,15,,,,,,2.5,1.3,2.2*34
[1685551860006]$GPRMC,215056.000,A,3744.8092,N,08901.5004,W,027.6,085.8,310523,,,A*7F
[1685551860006]$GPVTG,085.8,T,,M,027.6,N,051.0,K,A*0F
[1685551860006]$GPGLL,3744.8097,N,08901.4911,W,215057.000,A,A*40
[1685551860006]$GPGSA,A,3,18,05,20,29,13,11,15,,,,,,2.5,1.3,2.2*34
[1685551861205]$GPRMC,215057.000,A,3744.8097,N,08901.4911,W,026.7,085.4,310523,,,A*7B
[1685551861205]$GPVTG,085.4,T,,M,026.7,N,049.4,K,A*0E
[1685551861205]$GPGLL,3744.8103,N,08901.4818,W,215058.000,A,A*4B
[1685551861205]$GPGSA,A,3,18,05,20,29,13,11,15,,,,,,2.5,1.3,2.2*34
[1685551861205]$GPGSV,3,1,11,29,73,238,27,15,54,168,27,05,53,041,30,13,51,107,22*72
[1685551861205]$GPGSV,3,2,11,18,31,304,24,20,30,056,26,11,20,098,29,23,20,249,*70
[1685551861205]$GPGSV,3,3,11,25,07,218,12,26,07,301,18,30,02,059,*44
[1685551862004]$GPRMC,215058.000,A,3744.8103,N,08901.4818,W,025.7,086.6,310523,,,A*72
[1685551862004]$GPVTG,086.6,T,,M,025.7,N,047.7,K,A*01
[1685551862004]$GPGLL,3744.8107,N,08901.4728,W,215059.000,A,A*42
[1685551862004]$GPGSA,A,3,18,05,20,29,13,11,15,,,,,,2.5,1.3,2.2*34
[1685551863005]$GPRMC,215059.000,A,3744.8107,N,08901.4728,W,024.6,087.7,310523,,,A*7B
[1685551863005]$GPVTG,087.7,T,,M,024.6,N,045.6,K,A*02
[1685551863005]$GPGLL,3744.8110,N,08901.4642,W,215100.000,A,A*44
[1685551863005]$GPGSA,A,3,18,05,20,29,13,11,15,,,,,,2.5,1.3,2.2*34
[1685551864204]$GPRMC,215100.000,A,3744.8110,N,08901.4642,W,023.1,086.8,310523,,,A*73
[1685551864204]$GPVTG,086.8,T,,M,023.1,N,042.8,K,A*05
[1685551864204]$GPGLL,3744.8114,N,08901.4561,W,215101.000,A,A*43
[1685551864204]$GPGSA,A,3,18,05,20,29,13,11,15,,,,,,2.5,1.3,2.2*34
[1685551864204]$GPGSV,3,1,11,29,73,237,27,15,54,168,25,05,53,041,30,13,51,107,22*7F
[1685551864204]$GPGSV,3,2,11,18,31,304,25,20,30,056,25,11,20,098,26,23,20,249,*7D
[1685551864204]$GPGSV,3,3,11,26,07,301,21,25,07,218,,30,02,059,*4D
[1685551865006]$GPRMC,215101.000,A,3744.8114,N,08901.4561,W,021.9,081.3,310523,,,A*72
[1685551865006]$GPVTG,081.3,T,,M,021.9,N,040.5,K,A*0C
[1685551865006]$GPGLL,3744.8124,N,08901.4486,W,215102.000,A,A*4B
[1685551865006]$GPGSA,A,3,18,05,20,29,13,11,15,,,,,,2.5,1.3,2.2*34
[1685551866007]$GPRMC,215102.000,A,3744.8124,N,08901.4486,W,020.5,073.2,310523,,,A*7B
[1685551866007]$GPVTG,073.2,T,,M,020.5,N,037.9,K,A*01
[1685551866007]$GPGLL,3744.8143,N,08901.4419,W,215103.000,A,A*4D
[1685551866007]$GPGSA,A,3,18,05,20,29,13,11,15,,,,,,2.5,1.3,2.2*34
[1685551867247]$GPRMC,215103.000,A,3744.8143,N,08901.4419,W,019.6,064.9,310523,,,A*79
[1685551867247]$GPVTG,064.9,T,,M,019.6,N,036.4,K,A*09
[1685551867247]$GPGLL,3744.8168,N,08901.4360,W,215104.000,A,A*4A
[1685551867247]$GPGSA,A,3,18,25,05,20,29,13,11,15,,,,,1.7,1.0,1.4*34
[1685551867247]$GPGSV,3,1,11,29,73,237,25,15,54,168,29,05,53,041,27,13,51,107,31*75
[1685551867247]$GPGSV,3,2,11,18,31,304,26,20,30,056,29,11,20,098,31,23,20,249,11*74
[1685551867247]$GPGSV,3,3,11,25,07,218,22,26,07,301,17,30,02,059,*48
[1685551868007]$GPRMC,215104.000,A,3744.8168,N,08901.4360,W,018.1,046.0,310523,,,A*71
[1685551868007]$GPVTG,046.0,T,,M,018.1,N,033.5,K,A*02
[1685551868007]$GPGLL,3744.8217,N,08901.4319,W,215105.000,A,A*4E
[1685551868007]$GPGSA,A,3,18,25,05,20,29,13,11,15,,,,,1.7,1.0,1.4*34
[1685551869008]$GPRMC,215105.000,A,3744.8217,N,08901.4319,W,018.1,035.2,310523,,,A*73
[1685551869008]$GPVTG,035.2,T,,M,018.1,N,033.5,K,A*04
[1685551869008]$GPGLL,3744.8264,N,08901.4289,W,215106.000,A,A*41
[1685551869008]$GPGSA,A,3,18,25,05,20,29,13,11,15,,,,,1.7,1.0,1.4*34
[1685551870244]$GPRMC,215106.000,A,3744.8264,N,08901.4289,W,018.2,027.9,310523,,,A*77
[1685551870244]$GPVTG,027.9,T,,M,018.2,N,033.7,K,A*0D
[1685551870244]$GPGLL,3744.8317,N,08901.4289,W,215107.000,A,A*45
[1685551870244]$GPGSA,A,3,18,25,05,20,29,13,11,15,23,,,,1.7,1.0,1.3*32
[1685551870244]$GPGSV,3,1,11,29,73,237,29,15,54,168,27,05,53,041,23,13,51,107,25*76
[1685551870244]$GPGSV,3,2,11,18,31,304,25,20,30,056,32,11,20,098,27,23,20,249,23*7B
[1685551870244]$GPGSV,3,3,11,25,07,218,21,26,07,301,14,30,02,059,*48
[1685551871009]$GPRMC,215107.000,A,3744.8317,N,08901.4289,W,018.3,023.5,310523,,,A*7A
[1685551871009]$GPVTG,023.5,T,,M,018.3,N,033.9,K,A*0A
[1685551871009]$GPGLL,3744.8366,N,08901.4278,W,215108.000,A,A*42
[1685551871009]$GPGSA,A,3,18,25,05,20,29,13,11,15,23,,,,1.7,1.0,1.3*32
[1685551872012]$GPRMC,215108.000,A,3744.8366,N,08901.4278,W,017.9,030.1,310523,,,A*7E
[1685551872012]$GPVTG,030.1,T,,M,017.9,N,033.2,K,A*02
[1685551872012]$GPGLL,3744.8409,N,08901.4241,W,215109.000,A,A*47
[1685551872012]$GPGSA,A,3,18,25,05,20,29,13,11,15,23,,,,1.7,1.0,1.3*32
[1685551873241]$GPRMC,215109.000,A,3744.8409,N,08901.4241,W,017.7,042.4,310523,,,A*75
[1685551873241]$GPVTG,042.4,T,,M,017.7,N,032.8,K,A*07
[1685551873241]$GPGLL,3744.8440,N,08901.4196,W,215110.000,A,A*4B
[1685551873241]$GPGSA,A,3,18,25,05,20,29,13,11,15,23,,,,1.7,1.0,1.3*32
[1685551873241]$GPGSV,3,1,11,29,73,237,27,15,54,168,25,05,53,041,26,13,51,107,25*7F
[1685551873241]$GPGSV,3,2,11,18,31,304,25,20,30,056,25,11,20,098,27,23,20,249,23*7D
[1685551873241]$GPGSV,3,3,11,25,07,218,21,26,07,301,15,30,02,059,*49
[1685551874014]$GPRMC,215110.000,A,3744.8440,N,08901.4196,W,016.2,053.9,310523,,,A*70
[1685551874014]$GPVTG,053.9,T,,M,016.2,N,030.1,K,A*05
[1685551874014]$GPGLL,3744.8452,N,08901.4139,W,215111.000,A,A*4C
[1685551874014]$GPGSA,A,3,18,25,05,20,29,13,11,15,23,,,,1.7,1.0,1.3*32
[1685551875009]$GPRMC,215111.000,A,3744.8452,N,08901.4139,W,017.2,077.2,310523,,,A*7B
[1685551875009]$GPVTG,077.2,T,,M,017.2,N,031.8,K,A*01
[1685551875009]$GPGLL,3744.8454,N,08901.4070,W,215112.000,A,A*45
[1685551875009]$GPGSA,A,3,18,25,05,20,29,13,11,15,23,,,,1.7,1.0,1.3*32
[1685551876242]$GPRMC,215112.000,A,3744.8454,N,08901.4070,W,019.0,088.1,310523,,,A*7D
[1685551876242]$GPVTG,088.1,T,,M,019.0,N,035.2,K,A*00
[1685551876242]$GPGLL,3744.8455,N,08901.3999,W,215113.000,A,A*4C
[1685551876242]$GPGSA,A,3,18,25,05,20,29,13,11,15,23,,,,1.7,1.0,1.3*32
[1685551876242]$GPGSV,3,1,11,29,73,237,27,15,54,168,25,05,53,041,31,13,51,107,24*78
[1685551876242]$GPGSV,3,2,11,18,31,304,24,20,30,056,25,11,20,098,27,23,20,249,21*7E
[1685551876242]$GPGSV,3,3,11,25,07,218,19,26,07,301,22,30,02,059,*46
[1685551877008]$GPRMC,215113.000,A,3744.8455,N,08901.3999,W,020.2,091.8,310523,,,A*7D
[1685551877008]$GPVTG,091.8,T,,M,020.2,N,037.4,K,A*0D
[1685551877008]$GPGLL,3744.8452,N,08901.3916,W,215114.000,A,A*4B
[1685551877008]$GPGSA,A,3,18,25,05,20,29,13,11,15,23,,,,1.7,1.0,1.3*32
[1685551878011]$GPRMC,215114.000,A,3744.8452,N,08901.3916,W,022.1,093.5,310523,,,A*74
[1685551878011]$GPVTG,093.5,T,,M,022.1,N,041.0,K,A*06
[1685551878011]$GPGLL,3744.8442,N,08901.3835,W,215115.000,A,A*4B
[1685551878011]$GPGSA,A,3,18,25,05,20,29,13,11,15,23,,,,1.7,1.0,1.3*32
[1685551879209]$GPRMC,215115.000,A,3744.8442,N,08901.3835,W,022.7,095.4,310523,,,A*75
[1685551879209]$GPVTG,095.4,T,,M,022.7,N,042.0,K,A*04
[1685551879209]$GPGLL,3744.8436,N,08901.3761,W,215116.000,A,A*45
[1685551879209]$GPGSA,A,3,18,25,05,20,29,11,15,,,,,,1.8,1.1,1.4*38
[1685551879209]$GPGSV,3,1,11,29,73,237,27,15,54,168,24,05,53,041,29,13,51,107,22*76
[1685551879209]$GPGSV,3,2,11,18,31,304,25,20,30,056,24,23,20,249,18,11,19,098,25*7C
[1685551879209]$GPGSV,3,3,11,25,07,218,19,26,07,301,21,30,02,059,*45
[1685551880014]$GPRMC,215116.000,A,3744.8436,N,08901.3761,W,022.7,095.7,310523,,,A*78
[1685551880014]$GPVTG,095.7,T,,M,022.7,N,042.1,K,A*06
[1685551880014]$GPGLL,3744.8431,N,08901.3679,W,215117.000,A,A*4B
[1685551880014]$GPGSA,A,3,18,25,05,20,29,11,15,,,,,,1.8,1.1,1.4*38
[1685551881008]$GPRMC,215117.000,A,3744.8431,N,08901.3679,W,022.6,096.2,310523,,,A*71
[1685551881008]$GPVTG,096.2,T,,M,022.6,N,041.9,K,A*0A
[1685551881008]$GPGLL,3744.8423,N,08901.3600,W,215118.000,A,A*49
[1685551881008]$GPGSA,A,3,18,25,05,20,29,13,11,15,,,,,1.7,1.0,1.4*34
[1685551882245]$GPRMC,215118.000,A,3744.8423,N,08901.3600,W,022.4,096.8,310523,,,A*7B
[1685551882245]$GPVTG,096.8,T,,M,022.4,N,041.6,K,A*0D
[1685551882245]$GPGLL,3744.8416,N,08901.3522,W,215119.000,A,A*4D
[1685551882245]$GPGSA,A,3,18,25,05,20,29,13,11,15,,,,,1.7,1.0,1.4*34
[1685551882245]$GPGSV,3,1,11,29,73,237,28,15,54,168,25,05,53,041,30,13,51,106,19*79
[1685551882245]$GPGSV,3,2,11,18,31,304,25,20,30,056,23,23,20,249,15,11,19,098,25*76
[1685551882245]$GPGSV,3,3,11,25,07,218,19,26,07,301,21,30,02,059,*45
[1685551883010]$GPRMC,215119.000,A,3744.8416,N,08901.3522,W,022.9,094.8,310523,,,A*70
[1685551883010]$GPVTG,094.8,T,,M,022.9,N,042.4,K,A*03
[1685551883010]$GPGLL,3744.8409,N,08901.3446,W,215120.000,A,A*4A
[1685551883010]$GPGSA,A,3,18,25,05,20,29,13,11,15,,,,,1.7,1.0,1.4*34
[1685551884010]$GPRMC,215120.000,A,3744.8409,N,08901.3446,W,022.4,094.3,310523,,,A*71
[1685551884010]$GPVTG,094.3,T,,M,022.4,N,041.5,K,A*07
[1685551884010]$GPGLL,3744.8405,N,08901.3371,W,215121.000,A,A*44
[1685551884010]$GPGSA,A,3,18,25,05,20,29,13,11,15,23,,,,1.7,1.0,1.3*32
[1685551885244]$GPRMC,215121.000,A,3744.8405,N,08901.3371,W,021.6,093.5,310523,,,A*7F
[1685551885244]$GPVTG,093.5,T,,M,021.6,N,040.1,K,A*02
[1685551885244]$GPGLL,3744.8400,N,08901.3296,W,215122.000,A,A*4A
[1685551885244]$GPGSA,A,3,18,05,20,29,13,11,15,23,,,,,2.0,1.1,1.6*35
[1685551885244]$GPGSV,3,1,12,29,73,237,26,15,54,168,25,05,53,041,29,13,51,106,19*7C
[1685551885244]$GPGSV,3,2,12,18,31,304,24,20,30,056,24,23,20,249,16,11,19,098,26*73
[1685551885244]$GPGSV,3,3,12,26,07,301,24,25,07,218,19,30,02,059,,16,00,330,*74
[1685551886009]$GPRMC,215122.000,A,3744.8400,N,08901.3296,W,020.5,093.9,310523,,,A*7F
[1685551886009]$GPVTG,093.9,T,,M,020.5,N,037.9,K,A*04
[1685551886009]$GPGLL,3744.8394,N,08901.3232,W,215123.000,A,A*4F
[1685551886009]$GPGSA,A,3,18,05,20,29,13,11,15,23,,,,,2.0,1.1,1.6*35
[1685551887009]$GPRMC,215123.000,A,3744.8394,N,08901.3232,W,018.2,094.8,310523,,,A*70
[1685551887009]$GPVTG,094.8,T,,M,018.2,N,033.7,K,A*04
[1685551887009]$GPGLL,3744.8390,N,08901.3169,W,215124.000,A,A*41
[1685551887009]$GPGSA,A,3,18,05,20,29,13,11,15,23,,,,,2.0,1.1,1.6*35
[1685551888248]$GPRMC,215124.000,A,3744.8390,N,08901.3169,W,016.3,097.3,310523,,,A*79
[1685551888248]$GPVTG,097.3,T,,M,016.3,N,030.1,K,A*06
[1685551888248]$GPGLL,3744.8382,N,08901.3117,W,215125.000,A,A*4A
[1685551888248]$GPGSA,A,3,18,25,05,20,29,13,11,15,23,,,,1.7,1.0,1.3*32
[1685551888248]$GPGSV,3,1,12,29,73,237,28,15,54,168,28,05,53,041,29,13,51,106,27*72
[1685551888248]$GPGSV,3,2,12,18,31,304,24,20,30,056,27,23,20,249,21,11,19,098,25*77
[1685551888248]$GPGSV,3,3,12,26,07,301,23,25,07,218,16,30,02,059,,16,00,330,*7C
[1685551889009]$GPRMC,215125.000,A,3744.8382,N,08901.3117,W,013.6,104.1,310523,,,A*7B
[1685551889009]$GPVTG,104.1,T,,M,013.6,N,025.2,K,A*08
[1685551889009]$GPGLL,3744.8369,N,08901.3075,W,215126.000,A,A*49
[1685551889009]$GPGSA,A,3,18,25,05,20,29,13,11,15,23,,,,1.7,1.0,1.3*32
[1685551890011]$GPRMC,215126.000,A,3744.8369,N,08901.3075,W,012.5,117.4,310523,,,A*7D
[1685551890011]$GPVTG,117.4,T,,M,012.5,N,023.1,K,A*08
[1685551890011]$GPGLL,3744.8353,N,08901.3038,W,215127.000,A,A*48
[1685551890011]$GPGSA,A,3,18,05,20,29,13,11,15,23,,,,,2.0,1.1,1.6*35
[1685551891247]$GPRMC,215127.000,A,3744.8353,N,08901.3038,W,010.3,134.9,310523,,,A*74
[1685551891247]$GPVTG,134.9,T,,M,010.3,N,019.1,K,A*09
[1685551891247]$GPGLL,3744.8328,N,08901.3023,W,215128.000,A,A*41
[1685551891247]$GPGSA,A,3,18,25,05,20,29,13,11,15,23,,,,1.7,1.0,1.3*32
[1685551891247]$GPGSV,3,1,12,29,73,237,32,15,54,168,25,05,53,041,27,13,51,106,27*7A
[1685551891247]$GPGSV,3,2,12,18,31,304,22,20,30,056,27,23,20,249,28,11,19,098,27*7A
[1685551891247]$GPGSV,3,3,12,26,07,301,22,25,07,218,16,30,02,059,,16,00,330,*7D
[1685551892013]$GPRMC,215128.000,A,3744.8328,N,08901.3023,W,009.8,149.0,310523,,,A*7D
[1685551892013]$GPVTG,149.0,T,,M,009.8,N,018.2,K,A*0B
[1685551892013]$GPGLL,3744.8301,N,08901.3012,W,215129.000,A,A*49
[1685551892013]$GPGSA,A,3,18,25,05,20,29,13,11,15,23,,,,1.7,1.0,1.3*32
[1685551893019]$GPRMC,215129.000,A,3744.8301,N,08901.3012,W,011.5,157.1,310523,,,A*7F
[1685551893019]$GPVTG,157.1,T,,M,011.5,N,021.3,K,A*0A
[1685551893019]$GPGLL,3744.8262,N,08901.3009,W,215130.000,A,A*4F
[1685551893019]$GPGSA,A,3,18,25,05,20,29,13,11,15,23,,,,1.7,1.0,1.3*32
[1685551894245]$GPRMC,215130.000,A,3744.8262,N,08901.3009,W,013.6,170.0,310523,,,A*7C
[1685551894245]$GPVTG,170.0,T,,M,013.6,N,025.3,K,A*0B
[1685551894245]$GPGLL,3744.8224,N,08901.3014,W,215131.000,A,A*40
[1685551894245]$GPGSA,A,3,18,25,05,20,29,13,11,15,23,,,,1.7,1.0,1.3*32
[1685551894245]$GPGSV,3,1,12,29,73,237,25,15,54,168,25,05,53,041,26,13,51,106,29*73
[1685551894245]$GPGSV,3,2,12,18,31,304,26,20,30,056,27,23,20,249,27,11,19,098,27*71
[1685551894245]$GPGSV,3,3,12,26,07,300,21,25,07,218,24,30,02,059,,16,00,330,*7E
[1685551895012]$GPRMC,215131.000,A,3744.8224,N,08901.3014,W,015.4,175.0,310523,,,A*72
[1685551895012]$GPVTG,175.0,T,,M,015.4,N,028.6,K,A*02
[1685551895012]$GPGLL,3744.8179,N,08901.3018,W,215132.000,A,A*44
[1685551895012]$GPGSA,A,3,18,25,05,20,29,13,11,15,23,,,,1.7,1.0,1.3*32
[1685551896010]$GPRMC,215132.000,A,3744.8179,N,08901.3018,W,017.0,178.9,310523,,,A*74
[1685551896010]$GPVTG,178.9,T,,M,017.0,N,031.5,K,A*0B
[1685551896010]$GPGLL,3744.8128,N,08901.3014,W,215133.000,A,A*4D
[1685551896010]$GPGSA,A,3,18,25,05,20,29,13,11,15,23,,,,1.7,1.0,1.3*32
[1685551897243]$GPRMC,215133.000,A,3744.8128,N,08901.3014,W,017.9,179.4,310523,,,A*78
[1685551897243]$GPVTG,179.4,T,,M,017.9,N,033.1,K,A*08
[1685551897243]$GPGLL,3744.8071,N,08901.3018,W,215134.000,A,A*4B
[1685551897243]$GPGSA,A,3,18,25,05,29,13,11,15,23,,,,,1.8,1.1,1.4*39
[1685551897243]$GPGSV,3,1,12,29,73,237,24,15,54,168,22,05,53,041,27,13,51,106,29*74
[1685551897243]$GPGSV,3,2,12,18,31,304,27,20,30,056,23,23,20,249,25,11,19,098,24*75
[1685551897243]$GPGSV,3,3,12,26,07,300,18,25,07,218,24,30,02,059,,16,00,330,*74
[1685551898010]$GPRMC,215134.000,A,3744.8071,N,08901.3018,W,019.5,180.7,310523,,,A*79
[1685551898010]$GPVTG,180.7,T,,M,019.5,N,036.1,K,A*0A
[1685551898010]$GPGLL,3744.8011,N,08901.3021,W,215135.000,A,A*46
[1685551898010]$GPGSA,A,3,18,25,05,29,13,11,15,23,,,,,1.8,1.1,1.4*39
[1685551899010]$GPRMC,215135.000,A,3744.8011,N,08901.3021,W,020.5,180.9,310523,,,A*70
[1685551899010]$GPVTG,180.9,T,,M,020.5,N,038.1,K,A*00
[1685551899010]$GPGLL,3744.7952,N,08901.3025,W,215136.000,A,A*40
[1685551899010]$GPGSA,A,3,18,25,05,29,13,11,15,23,,,,,1.8,1.1,1.4*39
[1685551900242]$GPRMC,215136.000,A,3744.7952,N,08901.3025,W,020.8,180.7,310523,,,A*75
[1685551900242]$GPVTG,180.7,T,,M,020.8,N,038.5,K,A*07
[1685551900242]$GPGLL,3744.7892,N,08901.3026,W,215137.000,A,A*4F
[1685551900242]$GPGSA,A,3,18,25,05,20,29,13,11,15,23,,,,1.7,1.0,1.3*32
[1685551900242]$GPGSV,3,1,12,29,73,237,24,15,54,168,20,05,53,041,26,13,51,106,27*79
[1685551900242]$GPGSV,3,2,12,18,31,304,25,20,30,056,21,23,20,249,25,11,19,098,22*73
[1685551900242]$GPGSV,3,3,12,26,07,300,17,25,07,218,23,30,02,059,,16,00,330,*7C
[1685551901016]$GPRMC,215137.000,A,3744.7892,N,08901.3026,W,020.6,181.0,310523,,,A*72
[1685551901016]$GPVTG,181.0,T,,M,020.6,N,038.2,K,A*08
[1685551901016]$GPGLL,3744.7834,N,08901.3029,W,215138.000,A,A*43
[1685551901016]$GPGSA,A,3,18,25,05,20,29,13,11,23,,,,,1.9,1.1,1.5*3F
[1685551902012]$GPRMC,215138.000,A,3744.7834,N,08901.3029,W,020.8,181.0,310523,,,A*70
[1685551902012]$GPVTG,181.0,T,,M,020.8,N,038.6,K,A*02
[1685551902012]$GPGLL,3744.7777,N,08901.3034,W,215139.000,A,A*46
[1685551902012]$GPGSA,A,3,18,25,05,20,29,13,11,23,,,,,1.9,1.1,1.5*3F
[1685551903242]$GPRMC,215139.000,A,3744.7777,N,08901.3034,W,020.7,181.2,310523,,,A*78
[1685551903242]$GPVTG,181.2,T,,M,020.7,N,038.4,K,A*0D
[1685551903242]$GPGLL,3744.7722,N,08901.3036,W,215140.000,A,A*4A
[1685551903242]$GPGSA,A,3,18,25,05,20,29,13,11,15,23,,,,1.7,1.0,1.3*32
[1685551903242]$GPGSV,3,1,12,29,73,237,24,15,54,168,19,05,53,041,27,13,51,106,27*72
[1685551903242]$GPGSV,3,2,12,18,31,304,25,20,30,056,19,23,20,249,25,11,19,098,21*7B
[1685551903242]$GPGSV,3,3,12,26,07,300,19,25,07,218,22,30,02,059,,16,00,330,*73
[1685551904009]$GPRMC,215140.000,A,3744.7722,N,08901.3036,W,020.6,180.9,310523,,,A*7F
[1685551904009]$GPVTG,180.9,T,,M,020.6,N,038.1,K,A*03
[1685551904009]$GPGLL,3744.7664,N,08901.3035,W,215141.000,A,A*4B
[1685551904009]$GPGSA,A,3,18,25,05,20,29,13,11,15,23,,,,1.7,1.0,1.3*32
[1685551905011]$GPRMC,215141.000,A,3744.7664,N,08901.3035,W,020.3,180.4,310523,,,A*76
[1685551905011]$GPVTG,180.4,T,,M,020.3,N,037.6,K,A*03
[1685551905011]$GPGLL,3744.7608,N,08901.3035,W,215142.000,A,A*42
[1685551905011]$GPGSA,A,3,18,25,05,20,29,13,11,15,23,,,,1.7,1.0,1.3*32
[1685551906250]$GPRMC,215142.000,A,3744.7608,N,08901.3035,W,020.3,181.0,310523,,,A*7A
[1685551906250]$GPVTG,181.0,T,,M,020.3,N,037.5,K,A*05
[1685551906250]$GPGLL,3744.7551,N,08901.3037,W,215143.000,A,A*4E
[1685551906250]$GPGSA,A,3,18,25,05,20,29,13,11,15,23,,,,1.7,1.0,1.3*32
[1685551906250]$GPGSV,3,1,12,29,73,237,24,15,54,168,18,05,53,041,26,13,51,106,27*72
[1685551906250]$GPGSV,3,2,12,18,31,304,26,20,30,056,18,23,20,249,25,11,19,098,21*79
[1685551906250]$GPGSV,3,3,12,26,07,300,19,25,07,218,21,30,02,059,,16,00,330,*70
[1685551907010]$GPRMC,215143.000,A,3744.7551,N,08901.3037,W,020.0,181.0,310523,,,A*75
[1685551907010]$GPVTG,181.0,T,,M,020.0,N,037.1,K,A*02
[1685551907010]$GPGLL,3744.7495,N,08901.3039,W,215144.000,A,A*4E
[1685551907010]$GPGSA,A,3,18,25,05,20,29,13,11,15,23,,,,1.7,1.0,1.3*32
[1685551908012]$GPRMC,215144.000,A,3744.7495,N,08901.3039,W,019.7,180.7,310523,,,A*7E
[1685551908012]$GPVTG,180.7,T,,M,019.7,N,036.4,K,A*0D
[1685551908012]$GPGLL,3744.7441,N,08901.3041,W,215145.000,A,A*49
[1685551908012]$GPGSA,A,3,18,25,05,20,29,13,11,15,23,,,,1.7,1.0,1.3*32
[1685551909244]$GPRMC,215145.000,A,3744.7441,N,08901.3041,W,018.7,182.0,310523,,,A*7D
[1685551909244]$GPVTG,182.0,T,,M,018.7,N,034.6,K,A*09
[1685551909244]$GPGLL,3744.7392,N,08901.3047,W,215146.000,A,A*45
[1685551909244]$GPGSA,A,3,18,25,05,20,29,13,11,15,23,,,,1.7,1.0,1.3*32
[1685551909244]$GPGSV,3,1,12,29,73,237,24,15,54,168,27,05,53,041,26,13,51,106,25*7C
[1685551909244]$GPGSV,3,2,12,18,31,304,24,20,30,056,24,23,20,249,26,11,19,098,21*77
[1685551909244]$GPGSV,3,3,12,26,07,300,18,25,07,218,19,30,02,059,,16,00,330,*7A
[1685551910009]$GPRMC,215146.000,A,3744.7392,N,08901.3047,W,017.4,183.9,310523,,,A*75
[1685551910009]$GPVTG,183.9,T,,M,017.4,N,032.2,K,A*0F
[1685551910009]$GPGLL,3744.7345,N,08901.3058,W,215147.000,A,A*40
[1685551910009]$GPGSA,A,3,18,25,05,20,29,13,11,15,23,,,,1.7,1.0,1.3*32
[1685551911010]$GPRMC,215147.000,A,3744.7345,N,08901.3058,W,016.0,190.3,310523,,,A*7D
[1685551911010]$GPVTG,190.3,T,,M,016.0,N,029.6,K,A*0C
[1685551911010]$GPGLL,3744.7300,N,08901.3074,W,215148.000,A,A*40
[1685551911010]$GPGSA,A,3,18,25,05,20,29,13,11,15,23,,,,1.7,1.0,1.3*32
[1685551912243]$GPRMC,215148.000,A,3744.7300,N,08901.3074,W,015.8,197.9,310523,,,A*7B
[1685551912243]$GPVTG,197.9,T,,M,015.8,N,029.2,K,A*0E
[1685551912243]$GPGLL,3744.7268,N,08901.3102,W,215149.000,A,A*4E
[1685551912243]$GPGSA,A,3,18,25,05,20,29,13,11,15,23,,,,1.7,1.0,1.3*32
[1685551912243]$GPGSV,3,1,12,29,73,237,25,15,54,168,31,05,53,041,27,13,51,106,27*79
[1685551912243]$GPGSV,3,2,12,18,31,304,29,20,30,056,23,23,20,249,25,11,19,098,22*7D
[1685551912243]$GPGSV,3,3,12,26,07,300,24,25,07,218,24,30,02,059,,16,00,330,*7B
[1685551913009]$GPRMC,215149.000,A,3744.7268,N,08901.3102,W,014.7,211.2,310523,,,A*7D
[1685551913009]$GPVTG,211.2,T,,M,014.7,N,027.1,K,A*0B
[1685551913009]$GPGLL,3744.7236,N,08901.3138,W,215150.000,A,A*44
[1685551913009]$GPGSA,A,3,18,25,05,20,29,13,11,15,23,,,,1.7,1.0,1.3*32
[1685551914009]$GPRMC,215150.000,A,3744.7236,N,08901.3138,W,014.8,224.7,310523,,,A*7B
[1685551914009]$GPVTG,224.7,T,,M,014.8,N,027.5,K,A*03
[1685551914009]$GPGLL,3744.7212,N,08901.3183,W,215151.000,A,A*43
[1685551914009]$GPGSA,A,3,18,25,05,20,29,13,11,15,23,,,,1.7,1.0,1.3*32
[1685551915242]$GPRMC,215151.000,A,3744.7212,N,08901.3183,W,015.2,236.5,310523,,,A*76
[1685551915242]$GPVTG,236.5,T,,M,015.2,N,028.2,K,A*01
[1685551915242]$GPGLL,3744.7193,N,08901.3232,W,215152.000,A,A*43
[1685551915242]$GPGSA,A,3,18,05,20,29,13,11,15,23,,,,,2.0,1.1,1.6*35
[1685551915242]$GPGSV,3,1,12,29,73,237,27,15,54,168,26,05,53,041,25,13,51,106,26*7E
[1685551915242]$GPGSV,3,2,12,18,31,304,29,20,30,056,21,23,20,249,27,11,19,098,23*7C
[1685551915242]$GPGSV,3,3,12,26,07,300,26,25,07,218,22,30,02,059,,16,00,330,*7F
[1685551916009]$GPRMC,215152.000,A,3744.7193,N,08901.3232,W,016.5,247.0,310523,,,A*71
[1685551916009]$GPVTG,247.0,T,,M,016.5,N,030.5,K,A*08
[1685551916009]$GPGLL,3744.7178,N,08901.3292,W,215153.000,A,A*4D
[1685551916009]$GPGSA,A,3,18,25,05,20,29,13,11,15,23,,,,1.7,1.0,1.3*32
[1685551917010]$GPRMC,215153.000,A,3744.7178,N,08901.3292,W,019.1,258.5,310523,,,A*7F
[1685551917010]$GPVTG,258.5,T,,M,019.1,N,035.3,K,A*0B
[1685551917010]$GPGLL,3744.7174,N,08901.3369,W,215154.000,A,A*43
[1685551917010]$GPGSA,A,3,18,25,05,20,29,13,11,15,23,,,,1.7,1.0,1.3*32
[1685551918244]$GPRMC,215154.000,A,3744.7174,N,08901.3369,W,022.2,265.4,310523,,,A*75
[1685551918244]$GPVTG,265.4,T,,M,022.2,N,041.1,K,A*0E
